[
  {
    "name": "Sutlepa kabel",
    "nameEn": "Sutlepa Chapel",
    "type": "chapel",
    "originalLocation": "Sutlepa village, Noarootsi parish",
    "county": "Lääne County",
    "lat": 59.0506,
    "lng": 23.5856,
    "yearBuilt": "1699 (mentioned as early as 1627)",
    "description": "One of the oldest wooden buildings in Estonia. A wooden chapel from the Estonian Swedish (rannarootslased) settlement area, reconsecrated in 1989 and still used for sermons on major holy days.",
    "museumLink": "https://evm.ee/exhibition/stand-alone-objects/sutlepa-chapel"
  },
  {
    "name": "Kolu korts",
    "nameEn": "Kolu Inn (Tavern)",
    "type": "inn",
    "originalLocation": "Kolu village, Kose parish",
    "county": "Harju County",
    "lat": 59.1914,
    "lng": 25.0592,
    "yearBuilt": "1840s",
    "description": "A historic roadside inn on the Tallinn-Tartu road. Now serves traditional Estonian meals to museum visitors, offering a taste of 19th-century travel culture.",
    "museumLink": "https://evm.ee/exhibition/stand-alone-objects/kolu-inn"
  },
  {
    "name": "Sassi-Jaani talu",
    "nameEn": "Sassi-Jaani Farm",
    "type": "farmhouse",
    "originalLocation": "Kullamaa parish",
    "county": "Lääne County",
    "lat": 58.883,
    "lng": 24.083,
    "yearBuilt": "Early 19th century",
    "description": "A Western Estonian farm with a threshing house and storehouse, transferred to the museum in 1959-1960. The threshing house and storehouse burned in 1984 and were reopened in 1993.",
    "museumLink": "https://evm.ee/exhibition/western-estonia/sassi-jaani-farm",
    "subBuildings": [
      {
        "name": "Cattle-shed",
        "originalLocation": "Althärma farm, Jõeääre village, Märjamaa parish",
        "lat": 58.816,
        "lng": 24.455
      },
      {
        "name": "Summer kitchen (conical tent)",
        "originalLocation": "Kõrvetaga farm, Määra village, Risti parish",
        "lat": 59.05,
        "lng": 24.15
      }
    ]
  },
  {
    "name": "Kostriaseme talu",
    "nameEn": "Kostriaseme Farm",
    "type": "farmhouse",
    "originalLocation": "Kirikla village, Hageri parish",
    "county": "Harju County",
    "lat": 59.142,
    "lng": 24.546,
    "yearBuilt": "19th century",
    "description": "An average-sized rental farm of about 30 hectares that paid rent to Hageri church manor. Represents the life of tenant farmers in Northern Estonia.",
    "museumLink": "https://evm.ee/exhibition/western-estonia/kostriaseme-farm",
    "subBuildings": [
      {
        "name": "Two-room storehouse",
        "originalLocation": "Mõisaääre-Jaagu farm, Kelu village, Kirbla parish",
        "lat": 58.741,
        "lng": 23.895
      },
      {
        "name": "Textile storehouse",
        "originalLocation": "Juhani farm, Aude village, Nissi parish",
        "lat": 59.167,
        "lng": 24.25
      },
      {
        "name": "Cattle-shed",
        "originalLocation": "Mäe farm, Luiste village, Kullamaa parish",
        "lat": 58.848,
        "lng": 24.214
      },
      {
        "name": "Summer kitchen",
        "originalLocation": "Keedelaugu farm, Ahtama village, Risti parish",
        "lat": 59.172,
        "lng": 24.12
      }
    ]
  },
  {
    "name": "Nuki talu",
    "nameEn": "Nuki Farm",
    "type": "cotter dwelling",
    "originalLocation": "Saunja village, Lääne-Nigula parish",
    "county": "Lääne County",
    "lat": 58.9886,
    "lng": 23.6658,
    "yearBuilt": "1880-1890",
    "description": "A smokehouse-type cotter dwelling from Western Estonia, representing the living conditions of landless rural workers in the late 19th century.",
    "museumLink": "https://evm.ee/exhibition/western-estonia/nuki-farm"
  },
  {
    "name": "Harjapea talu (Kutsari-Harjapea)",
    "nameEn": "Harjapea Farm",
    "type": "farmhouse",
    "originalLocation": "Kuusalu parish area",
    "county": "Harju County",
    "lat": 59.25,
    "lng": 27.283,
    "yearBuilt": "Late 19th century (purchased 1892)",
    "description": "An average-sized Viru County farm with an Empire-era dwelling, purchased for 4,000 silver roubles. The interior depicts life in the late 1930s, with outbuildings from Kutsari farm.",
    "museumLink": "https://evm.ee/exhibition/northern-estonia/harjapea-farm",
    "subBuildings": [
      {
        "name": "Storehouse",
        "originalLocation": "Uhe farm, Vihula village, Haljala parish",
        "lat": 59.55,
        "lng": 26.15
      },
      {
        "name": "Cattle-shed",
        "originalLocation": "Orapere farm, Kõrbse village, Kadrina parish",
        "lat": 59.35,
        "lng": 26.15
      },
      {
        "name": "Smoke sauna",
        "originalLocation": "Punga farm, Koila village, Viru-Nigula parish",
        "lat": 59.45,
        "lng": 26.733
      }
    ]
  },
  {
    "name": "Pulga talu",
    "nameEn": "Pulga Farm",
    "type": "farmhouse",
    "originalLocation": "Kuusalu parish",
    "county": "Harju County",
    "lat": 59.483,
    "lng": 25.583,
    "yearBuilt": "19th century",
    "description": "A rental farm characteristic of Northern Estonia, featuring limestone and stone construction including a threshing floor, smithy, and summer kitchen.",
    "museumLink": "https://evm.ee/exhibition/northern-estonia/pulga-farm",
    "subBuildings": [
      {
        "name": "Storehouse with intermediate room",
        "originalLocation": "Sepa farm, Pudisoo village, Kuusalu parish",
        "lat": 59.517,
        "lng": 25.567
      },
      {
        "name": "Two-storey storehouse",
        "originalLocation": "Jaani farm, Suurekõrve village, Kuusalu parish",
        "lat": 59.44,
        "lng": 25.44
      },
      {
        "name": "Sauna combined with summer kitchen",
        "originalLocation": "Lauri farm, Kahala village, Kuusalu parish",
        "lat": 59.466,
        "lng": 25.507
      },
      {
        "name": "Smithy",
        "originalLocation": "Oluva farm, Kahala village, Kuusalu parish",
        "lat": 59.466,
        "lng": 25.507
      },
      {
        "name": "Hay shed (2)",
        "originalLocation": "Kangru farm, Kursi village, Kuusalu parish",
        "lat": 59.438,
        "lng": 25.513
      }
    ]
  },
  {
    "name": "Aarte talu",
    "nameEn": "Aarte Farm",
    "type": "fisherman's farm",
    "originalLocation": "Virve village, Juminda peninsula, Kuusalu parish",
    "county": "Harju County",
    "lat": 59.592,
    "lng": 25.607,
    "yearBuilt": "Second half of 19th century",
    "description": "A small fisherman's farm from the Juminda peninsula on the northern coast of Estonia, representing the life of coastal fishing communities.",
    "museumLink": "https://evm.ee/exhibition/northern-estonia/aarte-farm",
    "subBuildings": [
      {
        "name": "Vergi Net Shed",
        "originalLocation": "Haljala parish",
        "lat": 59.58,
        "lng": 26.1
      }
    ]
  },
  {
    "name": "Sepa talu",
    "nameEn": "Sepa Farm (Blacksmith's Farm)",
    "type": "blacksmith's farm",
    "originalLocation": "Palometsa village, Rouge parish, Kasaritsa commune",
    "county": "Voru County",
    "lat": 57.8097,
    "lng": 27.0953,
    "yearBuilt": "1880s-1890s",
    "description": "A blacksmith's household with about 10 hectares of poor soil, where smithcraft was the main income. Belonged to Peep Harak, a former blacksmith of Sanna manor.",
    "museumLink": "https://evm.ee/exhibition/southern-estonia/sepa-farm"
  },
  {
    "name": "Ritsu talu",
    "nameEn": "Ritsu Farm",
    "type": "cotter's farm",
    "originalLocation": "Tinnikuru village, Paistu parish",
    "county": "Viljandi County",
    "lat": 58.2047,
    "lng": 25.7811,
    "yearBuilt": "1860s",
    "description": "A cotter's household representing the poorest segment of rural Estonian society. The barn-dwelling was built in the 1860s and transferred to the museum in 1966.",
    "museumLink": "https://evm.ee/exhibition/southern-estonia/ritsu-farm"
  },
  {
    "name": "Rusi talu",
    "nameEn": "Rusi Farm",
    "type": "farmhouse",
    "originalLocation": "Pugritsa village, Karula parish",
    "county": "Valga County (historically Voru County)",
    "lat": 57.746,
    "lng": 26.228,
    "yearBuilt": "19th century",
    "description": "A farm of about 36 hectares, birthplace of sculptor Juhan Raudsepp (1896-1984). Buildings brought from Ala-Rusi farm and opened to visitors in 2002.",
    "museumLink": "https://evm.ee/exhibition/southern-estonia/rusi-farm",
    "subBuildings": [
      {
        "name": "Storehouse (Ait-tall)",
        "originalLocation": "Pisu farm, Säre village, Urvaste parish",
        "lat": 57.829,
        "lng": 26.575
      }
    ]
  },
  {
    "name": "Setu talu (Vanatalo)",
    "nameEn": "Setu Farm",
    "type": "farmhouse",
    "originalLocation": "Lokova village, Pankjavitsa (now Pskov Oblast, Russia)",
    "county": "Setomaa (Petserimaa)",
    "lat": 57.75,
    "lng": 27.85,
    "yearBuilt": "Last quarter of 19th century",
    "description": "A fortified Setu farm with a distinctive three-row yard layout typical of eastern Setomaa. The dwelling and storehouse were brought to the museum in 1979 from territory now in Russia.",
    "museumLink": "https://evm.ee/exhibition/southern-estonia/setu-farm"
  },
  {
    "name": "Natsi tuulik",
    "nameEn": "Natsi Windmill",
    "type": "post windmill",
    "originalLocation": "Vanasauna farm, Natsi village, Mihkli parish",
    "county": "Lääne County (Läänemaa)",
    "lat": 58.5234,
    "lng": 24.0727,
    "yearBuilt": "Second half of 19th century",
    "description": "A large post windmill originally from Rabavere village, later sold to Natsi village. Enlarged by cotter Ants Kummel after WWI to grind flour for surrounding villages.",
    "museumLink": "https://evm.ee/exhibition/western-estonia/natsi-windmill"
  },
  {
    "name": "Kahala vesiveski",
    "nameEn": "Kahala Watermill",
    "type": "watermill",
    "originalLocation": "Moldri farm, Kahala village, Kuusalu parish",
    "county": "Harju County",
    "lat": 59.4661,
    "lng": 25.5072,
    "yearBuilt": "19th century",
    "description": "A small watermill built on Liiva spring, one of four watermills belonging to Kolga manor. Used to grind flour, rye coarse meal, gruel, and groats.",
    "museumLink": "https://evm.ee/exhibition/northern-estonia/kahala-watermill"
  },
  {
    "name": "Kalma tuulik",
    "nameEn": "Kalma Windmill",
    "type": "Dutch-type windmill",
    "originalLocation": "Kalma village, Torma parish",
    "county": "Tartu County (historically Jogeva County)",
    "lat": 58.848,
    "lng": 26.702,
    "yearBuilt": "1897",
    "description": "A Dutch-type windmill with a cap-like rotating roof, built by Mustvee mill builder Jakob Sober for owner Juhan Sark. Brought to the museum in 1972 and rebuilt 1991-1995.",
    "museumLink": "https://evm.ee/exhibition/southern-estonia/kalma-windmill"
  },
  {
    "name": "Kuie koolimaja",
    "nameEn": "Kuie School Building",
    "type": "school",
    "originalLocation": "Kuie commune, Järva-Jaani parish",
    "county": "Järva County",
    "lat": 59.1126,
    "lng": 26.0557,
    "yearBuilt": "1887",
    "description": "A rural parish school building relocated with help from the founders of Rocca al Mare school. Now serves as the museum's educational center, opened on September 1, 2000.",
    "museumLink": "https://evm.ee/exhibition/stand-alone-objects/kuie-school-building"
  },
  {
    "name": "Orgmetsa tuletornipritsunemaja",
    "nameEn": "Orgmetsa Fire Station",
    "type": "fire station",
    "originalLocation": "Orgmetsa village, Järva-Madise parish",
    "county": "Järva County",
    "lat": 59.117,
    "lng": 25.783,
    "yearBuilt": "1928",
    "description": "A medium-sized volunteer firefighters' station from the Aravete-Albu firefighters' society (founded 1921). Contains manual fire engines, carts, barrels, hoses, and a bell tower.",
    "museumLink": "https://evm.ee/exhibition/stand-alone-objects/orgmetsa-fire-station"
  },
  {
    "name": "Lau kylapood",
    "nameEn": "Lau Village Shop",
    "type": "shop",
    "originalLocation": "Lau village, Juuru parish",
    "county": "Rapla County (historically Harju County)",
    "lat": 58.9903,
    "lng": 24.9786,
    "yearBuilt": "1914",
    "description": "A village shop built by distiller Jaan Meiberg from Ingliste manor. The exhibition depicts the shop as it would have looked in 1938, a prosperous era of Estonian economy.",
    "museumLink": "https://evm.ee/exhibition/stand-alone-objects/lau-village-shop"
  },
  {
    "name": "Roosta talu",
    "nameEn": "Roosta Farm",
    "type": "farmhouse",
    "originalLocation": "Leedri village, Kihelkonna parish",
    "county": "Saare County (Saaremaa)",
    "lat": 58.267,
    "lng": 22.033,
    "yearBuilt": "Second half of 18th century",
    "description": "A Western Saaremaa farm representing the barter economy system, with about 45 hectares of land including 5 hectares of stony fields. Buildings from Kihelkonna and Mustjala parishes.",
    "museumLink": "https://evm.ee/exhibition/the-islands/roosta-farm",
    "subBuildings": [
      {
        "name": "Cattle-shed",
        "originalLocation": "Mardi farm, Kõõru village, Mustjala parish, Saaremaa",
        "lat": 58.4,
        "lng": 22.167
      },
      {
        "name": "Summer kitchen / Smithy",
        "originalLocation": "Annuse farm, Karala village, Kihelkonna parish, Saaremaa",
        "lat": 58.267,
        "lng": 21.917
      },
      {
        "name": "Sauna",
        "originalLocation": "Matsi farm, Kugalepa village, Mustjala parish, Saaremaa",
        "lat": 58.511,
        "lng": 22.212
      }
    ]
  },
  {
    "name": "Juri-Jaagu talu",
    "nameEn": "Juri-Jaagu Farm",
    "type": "tenant farm",
    "originalLocation": "Muhu Island",
    "county": "Saare County",
    "lat": 58.589,
    "lng": 23.316,
    "yearBuilt": "Early 20th century",
    "description": "A 20th-century tenant farm from Muhu Island with 34 hectares of land. The family earned money from seasonal work due to poor stony soil and low pastureland yields.",
    "museumLink": "https://evm.ee/exhibition/the-islands/juri-jaagu-farm",
    "subBuildings": [
      {
        "name": "Storehouse (replica)",
        "originalLocation": "Salu-Andrus farm, Rootsivere village, Muhu parish",
        "lat": 58.583,
        "lng": 23.133
      },
      {
        "name": "Summer kitchen",
        "originalLocation": "Marjavälja farm, Külasema village, Muhu parish",
        "lat": 58.633,
        "lng": 23.183
      },
      {
        "name": "Summer kitchen / Sauna / Cellar",
        "originalLocation": "Pärdi farm, Mäla village, Muhu parish",
        "lat": 58.583,
        "lng": 23.283
      },
      {
        "name": "Cattle-shed",
        "originalLocation": "Mihkli farm, Lepiku village, Muhu parish",
        "lat": 58.628,
        "lng": 23.242
      }
    ]
  },
  {
    "name": "Kolga talu",
    "nameEn": "Kolga Farm",
    "type": "farmhouse",
    "originalLocation": "Lelu village, Emmaste parish",
    "county": "Hiiu County (Hiiumaa)",
    "lat": 58.714,
    "lng": 22.609,
    "yearBuilt": "19th century",
    "description": "A Hiiumaa tenant farm modeled on Pendi farm in Lelu village. Represents the spacious farmyard layout typical of Hiiumaa island farms.",
    "museumLink": "https://evm.ee/exhibition/the-islands/kolga-farm",
    "subBuildings": [
      {
        "name": "Storehouse",
        "originalLocation": "Aadu farm, Lepiku village, Emmaste parish, Hiiumaa",
        "lat": 58.698,
        "lng": 22.541
      },
      {
        "name": "Storehouse / Cattle shed (L-shaped)",
        "originalLocation": "Läku farm, Haldi village, Emmaste parish, Hiiumaa",
        "lat": 58.8,
        "lng": 22.5
      },
      {
        "name": "Cellar",
        "originalLocation": "Mihkli farm, Tilga village, Emmaste parish, Hiiumaa",
        "lat": 58.714,
        "lng": 22.609
      },
      {
        "name": "Smithy",
        "originalLocation": "Veoma farm, Vahtrepa village, Pühalepa parish, Hiiumaa",
        "lat": 58.883,
        "lng": 23.017
      }
    ]
  },
  {
    "name": "Vennastekoguduse palvemaja",
    "nameEn": "Moravian Church Prayer House",
    "type": "prayer house",
    "originalLocation": "Paka farm, Tuiu village, Mustjala parish",
    "county": "Saare County (Saaremaa)",
    "lat": 58.497,
    "lng": 22.387,
    "yearBuilt": "1780",
    "description": "A Moravian Brethren prayer house, unique for having a black kitchen (uncommon in Estonia). The Moravian movement arrived in Estonia around 1730.",
    "museumLink": "https://evm.ee/exhibition/the-islands/moravian-church-prayer-house"
  },
  {
    "name": "Hiiumaa randpuusekalaehoone",
    "nameEn": "Hiiumaa Itinerant Fishing House",
    "type": "fishing house",
    "originalLocation": "Sarvi village, Audru parish",
    "county": "Pärnu County",
    "lat": 58.38,
    "lng": 24.13,
    "yearBuilt": "Late 19th century",
    "description": "A temporary shelter built by Audru manor for Hiiumaa fishermen during the Baltic herring season. Was set on fire by an arsonist during the 1991 August putsch and later restored.",
    "museumLink": "https://evm.ee/exhibition/the-islands/hiiumaa-itinerant-fishing-house"
  },
  {
    "name": "Peipsimaa vene maja (Petshonkini maja)",
    "nameEn": "Russian House from Peipus (Pechonkin's House)",
    "type": "dwelling",
    "originalLocation": "Kallaste, Kodavere parish",
    "county": "Tartu County",
    "lat": 58.6631,
    "lng": 27.1616,
    "yearBuilt": "1863",
    "description": "A dwelling from the Russian Old Believer settlement on the western shore of Lake Peipus. These communities were founded by Old Believers who fled Russia after the 18th-century Orthodox Church schism.",
    "museumLink": "https://evm.ee/exhibition/southern-estonia/russian-house-from-peipus"
  },
  {
    "name": "Kolhoosi korterelamu",
    "nameEn": "Kolkhoz Apartment Building",
    "type": "apartment building",
    "originalLocation": "Rabi village, Valga district (Järvesalu collective farm)",
    "county": "Valga County",
    "lat": 58.112,
    "lng": 26.4383,
    "yearBuilt": "1964",
    "description": "A four-unit Soviet-era silicate brick apartment house built for dairy barn workers. Transported 200 km to the museum in 2019, it depicts rural life from the 1960s through the 2010s.",
    "museumLink": "https://evm.ee/exhibition/stand-alone-objects/kolkhoz-apartment-building"
  },
  {
    "name": "Jaagu talu",
    "nameEn": "Jaagu Farm",
    "type": "soldier's homestead",
    "originalLocation": "Islands region (Saaremaa area)",
    "county": "Saare County",
    "lat": 58.589,
    "lng": 23.316,
    "yearBuilt": "19th century",
    "description": "A soldier's homestead apportioned from a state manor, with only 9 hectares of land including 2 hectares of fields. Opened at the museum in 1976.",
    "museumLink": "https://evm.ee/exhibition/the-islands/jaagu-farm",
    "subBuildings": [
      {
        "name": "Storehouse (replica)",
        "originalLocation": "Salu-Andrus farm, Rootsivere village, Muhu parish",
        "lat": 58.583,
        "lng": 23.133
      },
      {
        "name": "Summer kitchen",
        "originalLocation": "Marjavälja farm, Külasema village, Muhu parish",
        "lat": 58.633,
        "lng": 23.183
      },
      {
        "name": "Summer kitchen / Sauna / Cellar",
        "originalLocation": "Pärdi farm, Mäla village, Muhu parish",
        "lat": 58.583,
        "lng": 23.283
      },
      {
        "name": "Cattle-shed",
        "originalLocation": "Mihkli farm, Lepiku village, Muhu parish",
        "lat": 58.628,
        "lng": 23.242
      }
    ]
  }
]